[{"nombre_completo":"Municipio Abra Pampa","fuente":"Direc. Grl. de Inmuebles","nombre":"Abra Pampa","id":"380014","provincia":{"nombre":"Jujuy","id":"38","interseccion":0.0711122979804305},"categoria":"Municipio","centroide":{"lat":-22.8431449411788,"lon":-66.0322682108588}},{"nombre_completo":"Comisión Municipal Abralaite","fuente":"Direc. Grl. de Inmuebles","nombre":"Abralaite","id":"386014","provincia":{"nombre":"Jujuy","id":"38","interseccion":0.0127847208411429},"categoria":"Comisión Municipal","centroide":{"lat":-23.1358937646647,"lon":-65.792209430154}},{"nombre_completo":"Municipio Humahuaca","fuente":"Direc. Grl. de Inmuebles","nombre":"Humahuaca","id":"380105","provincia":{"nombre":"Jujuy","id":"38","interseccion":0.030198067686917},"categoria":"Municipio","centroide":{"lat":-23.1800320816974,"lon":-65.3082961701977}},{"nombre_completo":"Comisión Municipal Abdón Castro Tolay","fuente":"Direc. Grl. de Inmuebles","nombre":"Abdón Castro Tolay","id":"386007","provincia":{"nombre":"Jujuy","id":"38","interseccion":0.0301031967545348},"categoria":"Comisión Municipal","centroide":{"lat":-23.3201640640822,"lon":-65.9917423948271}},{"nombre_completo":"Comisión Municipal Coranzuli","fuente":"Direc. Grl. de Inmuebles","nombre":"Coranzuli","id":"386161","provincia":{"nombre":"Jujuy","id":"38","interseccion":0.0658896639282888},"categoria":"Comisión Municipal","centroide":{"lat":-23.1946260949512,"lon":-66.614526284725}},{"nombre_completo":"Municipio El Aguilar","fuente":"Direc. Grl. de Inmuebles","nombre":"El Aguilar","id":"380091","provincia":{"nombre":"Jujuy","id":"38","interseccion":0.0116147583369531},"categoria":"Municipio","centroide":{"lat":-23.2109438569515,"lon":-65.6379141890805}},{"nombre_completo":"Comisión Municipal Susques","fuente":"Direc. Grl. de Inmuebles","nombre":"Susques","id":"386168","provincia":{"nombre":"Jujuy","id":"38","interseccion":0.0857337855575316},"categoria":"Comisión Municipal","centroide":{"lat":-23.7054223180767,"lon":-66.5588749659573}},{"nombre_completo":"Comisión Municipal Caspalá","fuente":"Direc. Grl. de Inmuebles","nombre":"Caspalá","id":"386210","provincia":{"nombre":"Jujuy","id":"38","interseccion":0.00619780819598875},"categoria":"Comisión Municipal","centroide":{"lat":-23.3446317099678,"lon":-65.083177753117}},{"nombre_completo":"Comisión Municipal Huacalera","fuente":"Direc. Grl. de Inmuebles","nombre":"Huacalera","id":"386175","provincia":{"nombre":"Jujuy","id":"38","interseccion":0.0108095273247069},"categoria":"Comisión Municipal","centroide":{"lat":-23.3977683815659,"lon":-65.3946655371627}},{"nombre_completo":"Comisión Municipal Catua","fuente":"Direc. Grl. de Inmuebles","nombre":"Catua","id":"386154","provincia":{"nombre":"Jujuy","id":"38","interseccion":0.0401456586558512},"categoria":"Comisión Municipal","centroide":{"lat":-23.6601037261503,"lon":-66.9591888909713}},{"nombre_completo":"Comisión Municipal Pampichuela","fuente":"Direc. Grl. de Inmuebles","nombre":"Pampichuela","id":"386217","provincia":{"nombre":"Jujuy","id":"38","interseccion":0.00702213053372575},"categoria":"Comisión Municipal","centroide":{"lat":-23.5633995980458,"lon":-65.0452232272797}},{"nombre_completo":"Comisión Municipal Valle Grande","fuente":"Direc. Grl. de Inmuebles","nombre":"Valle Grande","id":"386238","provincia":{"nombre":"Jujuy","id":"38","interseccion":0.00330713857918789},"categoria":"Comisión Municipal","centroide":{"lat":-23.4986285822548,"lon":-64.9305752762516}},{"nombre_completo":"Municipio Yuto","fuente":"Direc. Grl. de Inmuebles","nombre":"Yuto","id":"380147","provincia":{"nombre":"Jujuy","id":"38","interseccion":0.00807061483658957},"categoria":"Municipio","centroide":{"lat":-23.565307635886,"lon":-64.6176128701431}},{"nombre_completo":"Comisión Municipal Maimará","fuente":"Direc. Grl. de Inmuebles","nombre":"Maimará","id":"386182","provincia":{"nombre":"Jujuy","id":"38","interseccion":0.00322197133600192},"categoria":"Comisión Municipal","centroide":{"lat":-23.6423715717053,"lon":-65.4364492243533}},{"nombre_completo":"Municipio Calilegua","fuente":"Direc. Grl. de Inmuebles","nombre":"Calilegua","id":"380126","provincia":{"nombre":"Jujuy","id":"38","interseccion":0.0062697750512564},"categoria":"Municipio","centroide":{"lat":-23.7336839551609,"lon":-64.7601461359254}},{"nombre_completo":"Comisión Municipal Vinalito","fuente":"Direc. Grl. de Inmuebles","nombre":"Vinalito","id":"386126","provincia":{"nombre":"Jujuy","id":"38","interseccion":0.0151172183074366},"categoria":"Comisión Municipal","centroide":{"lat":-23.7307638894877,"lon":-64.3534086128734}},{"nombre_completo":"Municipio Libertador General San Martín","fuente":"Direc. Grl. de Inmuebles","nombre":"Libertador General San Martín","id":"380140","provincia":{"nombre":"Jujuy","id":"38","interseccion":0.0113094146371401},"categoria":"Municipio","centroide":{"lat":-23.8316438581042,"lon":-64.8514667116432}},{"nombre_completo":"Municipio Fraile Pintado","fuente":"Direc. Grl. de Inmuebles","nombre":"Fraile Pintado","id":"380133","provincia":{"nombre":"Jujuy","id":"38","interseccion":0.0194932806819195},"categoria":"Municipio","centroide":{"lat":-23.9229619249258,"lon":-64.9543223731296}},{"nombre_completo":"Municipio Palpalá","fuente":"Direc. Grl. de Inmuebles","nombre":"Palpalá","id":"380154","provincia":{"nombre":"Jujuy","id":"38","interseccion":0.00921981822271856},"categoria":"Municipio","centroide":{"lat":-24.1949225190466,"lon":-65.1264498125423}},{"nombre_completo":"Municipio San Salvador de Jujuy","fuente":"Direc. Grl. de Inmuebles","nombre":"San Salvador de Jujuy","id":"380035","provincia":{"nombre":"Jujuy","id":"38","interseccion":0.014058111675757},"categoria":"Municipio","centroide":{"lat":-24.1943902774618,"lon":-65.4189887578637}},{"nombre_completo":"Comisión Municipal Arrayanal","fuente":"Direc. Grl. de Inmuebles","nombre":"Arrayanal","id":"386091","provincia":{"nombre":"Jujuy","id":"38","interseccion":0.00249226405969624},"categoria":"Comisión Municipal","centroide":{"lat":-24.1313201861624,"lon":-64.7788900953339}},{"nombre_completo":"Municipio La Esperanza","fuente":"Direc. Grl. de Inmuebles","nombre":"La Esperanza","id":"380196","provincia":{"nombre":"Jujuy","id":"38","interseccion":0.00207537469590851},"categoria":"Municipio","centroide":{"lat":-24.2041715000581,"lon":-64.7720910953121}},{"nombre_completo":"Comisión Municipal Rodeíto","fuente":"Direc. Grl. de Inmuebles","nombre":"Rodeíto","id":"386105","provincia":{"nombre":"Jujuy","id":"38","interseccion":0.00408959901757599},"categoria":"Comisión Municipal","centroide":{"lat":-24.3084159629544,"lon":-64.7978944714527}},{"nombre_completo":"Municipio Santa Clara","fuente":"Direc. Grl. de Inmuebles","nombre":"Santa Clara","id":"380252","provincia":{"nombre":"Jujuy","id":"38","interseccion":0.00514535945939825},"categoria":"Municipio","centroide":{"lat":-24.2734316258699,"lon":-64.6096326715894}},{"nombre_completo":"Municipio La Mendieta","fuente":"Direc. Grl. de Inmuebles","nombre":"La Mendieta","id":"380203","provincia":{"nombre":"Jujuy","id":"38","interseccion":0.00198688198210661},"categoria":"Municipio","centroide":{"lat":-24.2955921038521,"lon":-65.0074267062509}},{"nombre_completo":"Comisión Municipal San Antonio","fuente":"Direc. Grl. de Inmuebles","nombre":"San Antonio","id":"386084","provincia":{"nombre":"Jujuy","id":"38","interseccion":0.0131304717899852},"categoria":"Comisión Municipal","centroide":{"lat":-24.3467258627678,"lon":-65.4468529258409}},{"nombre_completo":"Comisión Municipal Rosario de Río Grande","fuente":"Direc. Grl. de Inmuebles","nombre":"Rosario de Río Grande","id":"386112","provincia":{"nombre":"Jujuy","id":"38","interseccion":0.00358738253830505},"categoria":"Comisión Municipal","centroide":{"lat":-24.3672726216849,"lon":-64.9045281380553}},{"nombre_completo":"Municipio El Carmen","fuente":"Direc. Grl. de Inmuebles","nombre":"El Carmen","id":"380056","provincia":{"nombre":"Jujuy","id":"38","interseccion":0.00464762635450711},"categoria":"Municipio","centroide":{"lat":-24.4162328438079,"lon":-65.2749306821562}},{"nombre_completo":"Municipio Perico","fuente":"Direc. Grl. de Inmuebles","nombre":"Perico","id":"380077","provincia":{"nombre":"Jujuy","id":"38","interseccion":0.0041834522364614},"categoria":"Municipio","centroide":{"lat":-24.391972418633,"lon":-65.0852675017876}},{"nombre_completo":"Municipio La Merced","fuente":"Direc. Grl. de Inmuebles","nombre":"La Merced","id":"660084","provincia":{"nombre":"Salta","id":"66","interseccion":0.00204611628185148},"categoria":"Municipio","centroide":{"lat":-25.0395625548901,"lon":-65.3904542120284}},{"nombre_completo":"Municipio Las Lajitas","fuente":"Direc. Grl. de Inmuebles","nombre":"Las Lajitas","id":"660035","provincia":{"nombre":"Salta","id":"66","interseccion":0.02538765769719},"categoria":"Municipio","centroide":{"lat":-24.9101681976984,"lon":-64.5809409708697}},{"nombre_completo":"Municipio Tolar Grande","fuente":"Direc. Grl. de Inmuebles","nombre":"Tolar Grande","id":"660252","provincia":{"nombre":"Salta","id":"66","interseccion":0.0919476121351167},"categoria":"Municipio","centroide":{"lat":-24.6951301961003,"lon":-67.7458583264751}},{"nombre_completo":"Municipio Cafayate","fuente":"Direc. Grl. de Inmuebles","nombre":"Cafayate","id":"660056","provincia":{"nombre":"Salta","id":"66","interseccion":0.0102435663917782},"categoria":"Municipio","centroide":{"lat":-26.1255058750696,"lon":-65.88008457856}},{"nombre_completo":"Municipio Cerrillos","fuente":"Direc. Grl. de Inmuebles","nombre":"Cerrillos","id":"660077","provincia":{"nombre":"Salta","id":"66","interseccion":0.00145035886082852},"categoria":"Municipio","centroide":{"lat":-24.9165899415056,"lon":-65.4227277758729}},{"nombre_completo":"Municipio Embarcación","fuente":"Direc. Grl. de Inmuebles","nombre":"Embarcación","id":"660133","provincia":{"nombre":"Salta","id":"66","interseccion":0.0258613734816801},"categoria":"Municipio","centroide":{"lat":-23.2139456004596,"lon":-63.6867474854893}},{"nombre_completo":"Municipio Río Piedras","fuente":"Direc. Grl. de Inmuebles","nombre":"Río Piedras","id":"660280","provincia":{"nombre":"Salta","id":"66","interseccion":0.00566403644033659},"categoria":"Municipio","centroide":{"lat":-25.2657044540023,"lon":-65.0359297190078}},{"nombre_completo":"Municipio General Güemes","fuente":"Direc. Grl. de Inmuebles","nombre":"General Güemes","id":"660119","provincia":{"nombre":"Salta","id":"66","interseccion":0.0111651721112992},"categoria":"Municipio","centroide":{"lat":-24.8000501678009,"lon":-64.9080381225923}},{"nombre_completo":"Municipio Santa Victoria Este","fuente":"Direc. Grl. de Inmuebles","nombre":"Santa Victoria Este","id":"660343","provincia":{"nombre":"Salta","id":"66","interseccion":0.031010958940813},"categoria":"Municipio","centroide":{"lat":-22.4176111811168,"lon":-62.8122067292647}},{"nombre_completo":"Municipio Campo Quijano","fuente":"Direc. Grl. de Inmuebles","nombre":"Campo Quijano","id":"660364","provincia":{"nombre":"Salta","id":"66","interseccion":0.0301624310830474},"categoria":"Municipio","centroide":{"lat":-24.503469017085,"lon":-65.8693993163521}},{"nombre_completo":"Municipio Angastaco","fuente":"Direc. Grl. de Inmuebles","nombre":"Angastaco","id":"660378","provincia":{"nombre":"Salta","id":"66","interseccion":0.0212346328516374},"categoria":"Municipio","centroide":{"lat":-25.9298333255864,"lon":-66.3372867377435}},{"nombre_completo":"Municipio Aguaray","fuente":"Direc. Grl. de Inmuebles","nombre":"Aguaray","id":"660126","provincia":{"nombre":"Salta","id":"66","interseccion":0.0169359645933444},"categoria":"Municipio","centroide":{"lat":-22.1863764264674,"lon":-63.5496991956857}},{"nombre_completo":"Municipio Santa Victoria Oeste","fuente":"Direc. Grl. de Inmuebles","nombre":"Santa Victoria Oeste","id":"660413","provincia":{"nombre":"Salta","id":"66","interseccion":0.00963193590215233},"categoria":"Municipio","centroide":{"lat":-22.2585509228289,"lon":-65.0145224579477}},{"nombre_completo":"Municipio Nazareno","fuente":"Direc. Grl. de Inmuebles","nombre":"Nazareno","id":"660406","provincia":{"nombre":"Salta","id":"66","interseccion":0.00690919089898843},"categoria":"Municipio","centroide":{"lat":-22.4901350156833,"lon":-65.0457893547068}},{"nombre_completo":"Municipio Guachipas","fuente":"Direc. Grl. de Inmuebles","nombre":"Guachipas","id":"660168","provincia":{"nombre":"Salta","id":"66","interseccion":0.0181582541400105},"categoria":"Municipio","centroide":{"lat":-25.7029452739388,"lon":-65.4445328508854}},{"nombre_completo":"Municipio Metán","fuente":"Direc. Grl. de Inmuebles","nombre":"Metán","id":"660266","provincia":{"nombre":"Salta","id":"66","interseccion":0.00729679644950015},"categoria":"Municipio","centroide":{"lat":-25.5135434924208,"lon":-64.976719143493}},{"nombre_completo":"Municipio San Ramón de la Nueva Orán","fuente":"Direc. Grl. de Inmuebles","nombre":"San Ramón de la Nueva Orán","id":"660315","provincia":{"nombre":"Salta","id":"66","interseccion":0.0222364756566436},"categoria":"Municipio","centroide":{"lat":-23.0849220134688,"lon":-64.6094728862924}},{"nombre_completo":"Municipio Apolinario Saravia","fuente":"Direc. Grl. de Inmuebles","nombre":"Apolinario Saravia","id":"660007","provincia":{"nombre":"Salta","id":"66","interseccion":0.00703394113112382},"categoria":"Municipio","centroide":{"lat":-24.5066508305036,"lon":-64.146506788237}},{"nombre_completo":"Municipio General Mosconi","fuente":"Direc. Grl. de Inmuebles","nombre":"General Mosconi","id":"660147","provincia":{"nombre":"Salta","id":"66","interseccion":0.0181458085876167},"categoria":"Municipio","centroide":{"lat":-22.6055769659415,"lon":-63.9782396370587}},{"nombre_completo":"Municipio Los Toldos","fuente":"Direc. Grl. de Inmuebles","nombre":"Los Toldos","id":"660399","provincia":{"nombre":"Salta","id":"66","interseccion":0.00916558720739348},"categoria":"Municipio","centroide":{"lat":-22.4689957526384,"lon":-64.6575099735318}},{"nombre_completo":"Municipio Coronel Moldes","fuente":"Direc. Grl. de Inmuebles","nombre":"Coronel Moldes","id":"660231","provincia":{"nombre":"Salta","id":"66","interseccion":0.00475922588160965},"categoria":"Municipio","centroide":{"lat":-25.2941908506985,"lon":-65.4144258201107}},{"nombre_completo":"Municipio Pichanal","fuente":"Direc. Grl. de Inmuebles","nombre":"Pichanal","id":"660308","provincia":{"nombre":"Salta","id":"66","interseccion":0.0435758622529221},"categoria":"Municipio","centroide":{"lat":-23.728543811028,"lon":-63.8504366193731}},{"nombre_completo":"Municipio Joaquín V. González","fuente":"Direc. Grl. de Inmuebles","nombre":"Joaquín V. González","id":"660028","provincia":{"nombre":"Salta","id":"66","interseccion":0.071984669969401},"categoria":"Municipio","centroide":{"lat":-24.792347642004,"lon":-63.6538145950214}},{"nombre_completo":"Municipio Bahía Blanca","fuente":"ARBA - Gerencia de Servicios Catastrales","nombre":"Bahía Blanca","id":"060056","provincia":{"nombre":"Buenos Aires","id":"06","interseccion":0.00754121273617542},"categoria":"Municipio","centroide":{"lat":-38.5808546732895,"lon":-62.1656895327094}},{"nombre_completo":"Municipio Belén","fuente":"Adm. Grl. de Catastro","nombre":"Belén","id":"100063","provincia":{"nombre":"Catamarca","id":"10","interseccion":0.0151605671551815},"categoria":"Municipio","centroide":{"lat":-27.7111201189354,"lon":-66.847492244729}},{"nombre_completo":"Municipio Hualfín","fuente":"Adm. Grl. de Catastro","nombre":"Hualfín","id":"100077","provincia":{"nombre":"Catamarca","id":"10","interseccion":0.00697375946547148},"categoria":"Municipio","centroide":{"lat":-27.2327739205627,"lon":-66.6867349793277}},{"nombre_completo":"Municipio Cachi","fuente":"Direc. Grl. de Inmuebles","nombre":"Cachi","id":"660042","provincia":{"nombre":"Salta","id":"66","interseccion":0.012889502984612},"categoria":"Municipio","centroide":{"lat":-25.0590252489353,"lon":-66.2878110751075}},{"nombre_completo":"Municipio El Jardín","fuente":"Direc. Grl. de Inmuebles","nombre":"El Jardín","id":"660203","provincia":{"nombre":"Salta","id":"66","interseccion":0.00147689394146536},"categoria":"Municipio","centroide":{"lat":-26.0357145843493,"lon":-65.4415593896556}},{"nombre_completo":"Municipio San Antonio de los Cobres","fuente":"Direc. Grl. de Inmuebles","nombre":"San Antonio de los Cobres","id":"660245","provincia":{"nombre":"Salta","id":"66","interseccion":0.0701328624717204},"categoria":"Municipio","centroide":{"lat":-24.5731647705322,"lon":-66.8172575823382}},{"nombre_completo":"Municipio Molinos","fuente":"Direc. Grl. de Inmuebles","nombre":"Molinos","id":"660273","provincia":{"nombre":"Salta","id":"66","interseccion":0.0210305582336813},"categoria":"Municipio","centroide":{"lat":-25.6051411736222,"lon":-66.4900375368787}},{"nombre_completo":"Municipio Pozo de Piedra","fuente":"Adm. Grl. de Catastro","nombre":"Pozo de Piedra","id":"100091","provincia":{"nombre":"Catamarca","id":"10","interseccion":0.00478006348453558},"categoria":"Municipio","centroide":{"lat":-27.5461401411272,"lon":-67.1694075115445}},{"nombre_completo":"Municipio San Fernando","fuente":"Adm. Grl. de Catastro","nombre":"San Fernando","id":"100112","provincia":{"nombre":"Catamarca","id":"10","interseccion":0.00207252332357692},"categoria":"Municipio","centroide":{"lat":-27.3077227595379,"lon":-66.8569085255966}},{"nombre_completo":"Municipio San José","fuente":"Adm. Grl. de Catastro","nombre":"San José","id":"100203","provincia":{"nombre":"Catamarca","id":"10","interseccion":0.042354719664114},"categoria":"Municipio","centroide":{"lat":-26.8778834110203,"lon":-66.2971211607982}},{"nombre_completo":"Municipio Santa María","fuente":"Adm. Grl. de Catastro","nombre":"Santa María","id":"100210","provincia":{"nombre":"Catamarca","id":"10","interseccion":0.0132976106993203},"categoria":"Municipio","centroide":{"lat":-26.4929339197446,"lon":-66.1496524320488}},{"nombre_completo":"Municipio Aconquija","fuente":"Adm. Grl. de Catastro","nombre":"Aconquija","id":"100042","provincia":{"nombre":"Catamarca","id":"10","interseccion":0.00853194507215629},"categoria":"Municipio","centroide":{"lat":-27.5035405012381,"lon":-66.0582983765108}},{"nombre_completo":"Municipio Andalgalá","fuente":"Adm. Grl. de Catastro","nombre":"Andalgalá","id":"100049","provincia":{"nombre":"Catamarca","id":"10","interseccion":0.0385303526911644},"categoria":"Municipio","centroide":{"lat":-27.5535805469095,"lon":-66.4219289567448}},{"nombre_completo":"Municipio Saujil","fuente":"Adm. Grl. de Catastro","nombre":"Saujil","id":"100196","provincia":{"nombre":"Catamarca","id":"10","interseccion":0.0314404558600217},"categoria":"Municipio","centroide":{"lat":-28.0574573700851,"lon":-66.40241020613}},{"nombre_completo":"Municipio Pomán","fuente":"Adm. Grl. de Catastro","nombre":"Pomán","id":"100189","provincia":{"nombre":"Catamarca","id":"10","interseccion":0.0218704827488914},"categoria":"Municipio","centroide":{"lat":-28.411675471996,"lon":-66.4313284959768}},{"nombre_completo":"Municipio Mutquín","fuente":"Adm. Grl. de Catastro","nombre":"Mutquín","id":"100185","provincia":{"nombre":"Catamarca","id":"10","interseccion":0.00143375132619145},"categoria":"Municipio","centroide":{"lat":-28.3106975214611,"lon":-66.1479259632378}},{"nombre_completo":"Municipio San Fernando del Valle de Catamarca","fuente":"Adm. Grl. de Catastro","nombre":"San Fernando del Valle de Catamarca","id":"100140","provincia":{"nombre":"Catamarca","id":"10","interseccion":0.00396530611505024},"categoria":"Municipio","centroide":{"lat":-28.4104559393525,"lon":-65.8362002957157}},{"nombre_completo":"Municipio Paclín","fuente":"Adm. Grl. de Catastro","nombre":"Paclín","id":"100182","provincia":{"nombre":"Catamarca","id":"10","interseccion":0.00977196821687309},"categoria":"Municipio","centroide":{"lat":-28.1100495534152,"lon":-65.6738760474972}},{"nombre_completo":"Municipio General Alvarado","fuente":"ARBA - Gerencia de Servicios Catastrales","nombre":"General Alvarado","id":"060280","provincia":{"nombre":"Buenos Aires","id":"06","interseccion":0.00543276666507412},"categoria":"Municipio","centroide":{"lat":-38.2027130466249,"lon":-58.0722485722111}},{"nombre_completo":"Municipio General Lamadrid","fuente":"IGN","nombre":"General Lamadrid","id":"460077","provincia":{"nombre":"La Rioja","id":"46","interseccion":0.0664503583055262},"categoria":"Municipio","centroide":{"lat":-28.7904353562757,"lon":-68.6977547342455}},{"nombre_completo":"Municipio Vinchina","fuente":"IGN","nombre":"Vinchina","id":"460098","provincia":{"nombre":"La Rioja","id":"46","interseccion":0.123072933417896},"categoria":"Municipio","centroide":{"lat":-28.3164203776533,"lon":-68.5253984631142}},{"nombre_completo":"Municipio Coronel Felipe Varela","fuente":"IGN","nombre":"Coronel Felipe Varela","id":"460028","provincia":{"nombre":"La Rioja","id":"46","interseccion":0.0902197250287155},"categoria":"Municipio","centroide":{"lat":-29.449795605204,"lon":-68.3284822964494}},{"nombre_completo":"Municipio Castro Barros","fuente":"IGN","nombre":"Castro Barros","id":"460021","provincia":{"nombre":"La Rioja","id":"46","interseccion":0.016563824692652},"categoria":"Municipio","centroide":{"lat":-28.8599829479001,"lon":-66.9185847556269}},{"nombre_completo":"Municipio Iglesia","fuente":"Direc. de Geodesia y Catastro","nombre":"Iglesia","id":"700049","provincia":{"nombre":"San Juan","id":"70","interseccion":0.21516244196088},"categoria":"Municipio","centroide":{"lat":-29.6066873518889,"lon":-69.4379498926956}},{"nombre_completo":"Municipio Valle Fértil","fuente":"Direc. de Geodesia y Catastro","nombre":"Valle Fértil","id":"700119","provincia":{"nombre":"San Juan","id":"70","interseccion":0.0589946311427448},"categoria":"Municipio","centroide":{"lat":-30.7122962694162,"lon":-67.532303564839}},{"nombre_completo":"Municipio Ullum","fuente":"Direc. de Geodesia y Catastro","nombre":"Ullum","id":"700112","provincia":{"nombre":"San Juan","id":"70","interseccion":0.0503459806801266},"categoria":"Municipio","centroide":{"lat":-31.0904647062097,"lon":-68.8815821606005}},{"nombre_completo":"Municipio Albardón","fuente":"Direc. de Geodesia y Catastro","nombre":"Albardón","id":"700007","provincia":{"nombre":"San Juan","id":"70","interseccion":0.0115231977396303},"categoria":"Municipio","centroide":{"lat":-31.2096344810555,"lon":-68.4519807662306}},{"nombre_completo":"Municipio Zonda","fuente":"Direc. de Geodesia y Catastro","nombre":"Zonda","id":"700133","provincia":{"nombre":"San Juan","id":"70","interseccion":0.0272428308107438},"categoria":"Municipio","centroide":{"lat":-31.6381980593895,"lon":-68.9555709233009}},{"nombre_completo":"Municipio General Alvear","fuente":"IGN","nombre":"General Alvear","id":"500014","provincia":{"nombre":"Mendoza","id":"50","interseccion":0.0993663751625383},"categoria":"Municipio","centroide":{"lat":-35.2178364156832,"lon":-67.0804473289427}},{"nombre_completo":"Municipio San Rafael","fuente":"IGN","nombre":"San Rafael","id":"500105","provincia":{"nombre":"Mendoza","id":"50","interseccion":0.211310471554893},"categoria":"Municipio","centroide":{"lat":-34.944544968313,"lon":-68.3826783124895}},{"nombre_completo":"Municipio Santa Lucía","fuente":"Direc. de Geodesia y Catastro","nombre":"Santa Lucía","id":"700098","provincia":{"nombre":"San Juan","id":"70","interseccion":0.000617293120832176},"categoria":"Municipio","centroide":{"lat":-31.5327173670967,"lon":-68.4634116809574}},{"nombre_completo":"Municipio Rawson","fuente":"Direc. de Geodesia y Catastro","nombre":"Rawson","id":"700077","provincia":{"nombre":"San Juan","id":"70","interseccion":0.00326511461615207},"categoria":"Municipio","centroide":{"lat":-31.6865858135558,"lon":-68.4675631318926}},{"nombre_completo":"Municipio Jáchal","fuente":"Direc. de Geodesia y Catastro","nombre":"Jáchal","id":"700056","provincia":{"nombre":"San Juan","id":"70","interseccion":0.161947599206547},"categoria":"Municipio","centroide":{"lat":-30.3550759493247,"lon":-68.4412683481452}},{"nombre_completo":"Municipio Calingasta","fuente":"Direc. de Geodesia y Catastro","nombre":"Calingasta","id":"700021","provincia":{"nombre":"San Juan","id":"70","interseccion":0.25768851293505},"categoria":"Municipio","centroide":{"lat":-31.4533652386093,"lon":-69.8338001250746}},{"nombre_completo":"Municipio 25 de Mayo","fuente":"Direc. de Geodesia y Catastro","nombre":"25 de Mayo","id":"700126","provincia":{"nombre":"San Juan","id":"70","interseccion":0.0484475600077942},"categoria":"Municipio","centroide":{"lat":-31.9896198488069,"lon":-67.8274038980406}},{"nombre_completo":"Municipio General Pueyrredón","fuente":"ARBA - Gerencia de Servicios Catastrales","nombre":"General Pueyrredón","id":"060357","provincia":{"nombre":"Buenos Aires","id":"06","interseccion":0.00486483975046215},"categoria":"Municipio","centroide":{"lat":-37.9656760017008,"lon":-57.743144039076}},{"nombre_completo":"Municipio Mar Chiquita","fuente":"ARBA - Gerencia de Servicios Catastrales","nombre":"Mar Chiquita","id":"060518","provincia":{"nombre":"Buenos Aires","id":"06","interseccion":0.0102133023287361},"categoria":"Municipio","centroide":{"lat":-37.4984341236931,"lon":-57.6436183313312}},{"nombre_completo":"Municipio San Juan","fuente":"Direc. de Geodesia y Catastro","nombre":"San Juan","id":"700028","provincia":{"nombre":"San Juan","id":"70","interseccion":0.000304404814290635},"categoria":"Municipio","centroide":{"lat":-31.5330748483572,"lon":-68.5342856277406}},{"nombre_completo":"Comisión de Fomento Guañacos","fuente":"Direc. Pcial. de Catastro e Inf. Territorial","nombre":"Guañacos","id":"585077","provincia":{"nombre":"Neuquén","id":"58","interseccion":0.00620718986179549},"categoria":"Comisión de Fomento","centroide":{"lat":-37.2860435824025,"lon":-70.9333362922709}},{"nombre_completo":"Municipio Rivadavia","fuente":"IGN","nombre":"Rivadavia","id":"500084","provincia":{"nombre":"Mendoza","id":"50","interseccion":0.014230301993113},"categoria":"Municipio","centroide":{"lat":-33.419707109754,"lon":-68.6121759957283}},{"nombre_completo":"Municipio San Carlos","fuente":"IGN","nombre":"San Carlos","id":"500091","provincia":{"nombre":"Mendoza","id":"50","interseccion":0.0768118081400139},"categoria":"Municipio","centroide":{"lat":-34.0753663961096,"lon":-69.0977010128896}},{"nombre_completo":"Municipio Tunuyán","fuente":"IGN","nombre":"Tunuyán","id":"500119","provincia":{"nombre":"Mendoza","id":"50","interseccion":0.0221821485601708},"categoria":"Municipio","centroide":{"lat":-33.6223342938162,"lon":-69.507805463383}},{"nombre_completo":"Municipio Luján de Cuyo","fuente":"IGN","nombre":"Luján de Cuyo","id":"500063","provincia":{"nombre":"Mendoza","id":"50","interseccion":0.0320525017478883},"categoria":"Municipio","centroide":{"lat":-33.0382520812749,"lon":-69.4437142136648}},{"nombre_completo":"Municipio Las Heras","fuente":"IGN","nombre":"Las Heras","id":"500049","provincia":{"nombre":"Mendoza","id":"50","interseccion":0.0581153241941827},"categoria":"Municipio","centroide":{"lat":-32.5247668775426,"lon":-69.2671757239401}},{"nombre_completo":"Municipio Lavalle","fuente":"IGN","nombre":"Lavalle","id":"500056","provincia":{"nombre":"Mendoza","id":"50","interseccion":0.0671471657023154},"categoria":"Municipio","centroide":{"lat":-32.582585367751,"lon":-67.8890727049671}},{"nombre_completo":"Municipio Malargüe","fuente":"IGN","nombre":"Malargüe","id":"500077","provincia":{"nombre":"Mendoza","id":"50","interseccion":0.277429787816349},"categoria":"Municipio","centroide":{"lat":-36.1572730441954,"lon":-69.3135099463235}},{"nombre_completo":"Municipio Capital","fuente":"IGN","nombre":"Capital","id":"500007","provincia":{"nombre":"Mendoza","id":"50","interseccion":0.000346397919648896},"categoria":"Municipio","centroide":{"lat":-32.8806541047985,"lon":-68.8921657602392}},{"nombre_completo":"Comuna Manuel Garcia Fernandez","fuente":"Dirección de Estadística de la Prov. Tucumán","nombre":"Manuel Garcia Fernandez","id":"908322","provincia":{"nombre":"Tucumán","id":"90","interseccion":0.000869815331805669},"categoria":"Comuna","centroide":{"lat":-26.9597071072569,"lon":-65.2814079053137}},{"nombre_completo":"Municipio Rincón de los Sauces","fuente":"Direc. Pcial. de Catastro e Inf. Territorial","nombre":"Rincón de los Sauces","id":"580210","provincia":{"nombre":"Neuquén","id":"58","interseccion":0.0102410349731191},"categoria":"Municipio","centroide":{"lat":-37.4279286578832,"lon":-68.904881950857}},{"nombre_completo":"Comisión de Fomento Octavio Pico","fuente":"Direc. Pcial. de Catastro e Inf. Territorial","nombre":"Octavio Pico","id":"585105","provincia":{"nombre":"Neuquén","id":"58","interseccion":0.00320637445218676},"categoria":"Comisión de Fomento","centroide":{"lat":-37.6310256208455,"lon":-68.3594661614186}},{"nombre_completo":"Municipio Buta Ranquil","fuente":"Direc. Pcial. de Catastro e Inf. Territorial","nombre":"Buta Ranquil","id":"580203","provincia":{"nombre":"Neuquén","id":"58","interseccion":0.0227834097544042},"categoria":"Municipio","centroide":{"lat":-37.2421306229288,"lon":-69.8210409111221}},{"nombre_completo":"Comisión de Fomento Quili Malal","fuente":"Direc. Pcial. de Catastro e Inf. Territorial","nombre":"Quili Malal","id":"585126","provincia":{"nombre":"Neuquén","id":"58","interseccion":0.00389326725599612},"categoria":"Comisión de Fomento","centroide":{"lat":-38.4119191438239,"lon":-69.7502827574929}},{"nombre_completo":"Municipio Mariano Moreno","fuente":"Direc. Pcial. de Catastro e Inf. Territorial","nombre":"Mariano Moreno","id":"580238","provincia":{"nombre":"Neuquén","id":"58","interseccion":0.00096785655483942},"categoria":"Municipio","centroide":{"lat":-38.7687927342046,"lon":-70.0160273047475}},{"nombre_completo":"Municipio Junín de los Andes","fuente":"Direc. Pcial. de Catastro e Inf. Territorial","nombre":"Junín de los Andes","id":"580112","provincia":{"nombre":"Neuquén","id":"58","interseccion":0.0152679325441024},"categoria":"Municipio","centroide":{"lat":-39.9210969926669,"lon":-71.0997656206867}},{"nombre_completo":"Municipio Aluminé","fuente":"Direc. Pcial. de Catastro e Inf. Territorial","nombre":"Aluminé","id":"580007","provincia":{"nombre":"Neuquén","id":"58","interseccion":0.000853395747888524},"categoria":"Municipio","centroide":{"lat":-39.2342734029443,"lon":-70.9120954468479}},{"nombre_completo":"Municipio Neuquén","fuente":"Direc. Pcial. de Catastro e Inf. Territorial","nombre":"Neuquén","id":"580056","provincia":{"nombre":"Neuquén","id":"58","interseccion":0.00136159341561869},"categoria":"Municipio","centroide":{"lat":-38.9446959754993,"lon":-68.1001766838423}},{"nombre_completo":"Municipio Centenario","fuente":"Direc. Pcial. de Catastro e Inf. Territorial","nombre":"Centenario","id":"580042","provincia":{"nombre":"Neuquén","id":"58","interseccion":0.00138970499280536},"categoria":"Municipio","centroide":{"lat":-38.7973834665027,"lon":-68.1756656510973}},{"nombre_completo":"Municipio Pinamar","fuente":"ARBA - Gerencia de Servicios Catastrales","nombre":"Pinamar","id":"060644","provincia":{"nombre":"Buenos Aires","id":"06","interseccion":0.000218910073013455},"categoria":"Municipio","centroide":{"lat":-37.109945873389,"lon":-56.8696753983418}},{"nombre_completo":"Municipio Cutral Có","fuente":"Direc. Pcial. de Catastro e Inf. Territorial","nombre":"Cutral Có","id":"580049","provincia":{"nombre":"Neuquén","id":"58","interseccion":0.000856855369101051},"categoria":"Municipio","centroide":{"lat":-38.9398936598766,"lon":-69.2541458274133}},{"nombre_completo":"Municipio Plaza Huincul","fuente":"Direc. Pcial. de Catastro e Inf. Territorial","nombre":"Plaza Huincul","id":"580063","provincia":{"nombre":"Neuquén","id":"58","interseccion":0.000837072902335528},"categoria":"Municipio","centroide":{"lat":-38.9406582608027,"lon":-69.1598555722786}},{"nombre_completo":"Comisión de Fomento El Sauce","fuente":"Direc. Pcial. de Catastro e Inf. Territorial","nombre":"El Sauce","id":"585112","provincia":{"nombre":"Neuquén","id":"58","interseccion":0.00369788660386927},"categoria":"Comisión de Fomento","centroide":{"lat":-39.4816153694996,"lon":-69.5258646816178}},{"nombre_completo":"Municipio Picún Leufú","fuente":"Direc. Pcial. de Catastro e Inf. Territorial","nombre":"Picún Leufú","id":"580217","provincia":{"nombre":"Neuquén","id":"58","interseccion":0.0014864359869111},"categoria":"Municipio","centroide":{"lat":-39.5272959346432,"lon":-69.3041340199497}},{"nombre_completo":"Municipio Las Coloradas","fuente":"Direc. Pcial. de Catastro e Inf. Territorial","nombre":"Las Coloradas","id":"580028","provincia":{"nombre":"Neuquén","id":"58","interseccion":0.000858165350169015},"categoria":"Municipio","centroide":{"lat":-39.6076912118787,"lon":-70.5825186548069}},{"nombre_completo":"Comisión de Fomento Santo Tomás","fuente":"Direc. Pcial. de Catastro e Inf. Territorial","nombre":"Santo Tomás","id":"585035","provincia":{"nombre":"Neuquén","id":"58","interseccion":0.000942111427012083},"categoria":"Comisión de Fomento","centroide":{"lat":-39.8409265275249,"lon":-70.0938182756884}},{"nombre_completo":"Municipio Los Miches","fuente":"Direc. Pcial. de Catastro e Inf. Territorial","nombre":"Los Miches","id":"580161","provincia":{"nombre":"Neuquén","id":"58","interseccion":0.00511245748214139},"categoria":"Municipio","centroide":{"lat":-37.1472111349999,"lon":-70.9641103407799}},{"nombre_completo":"Municipio El Huecú","fuente":"Direc. Pcial. de Catastro e Inf. Territorial","nombre":"El Huecú","id":"580182","provincia":{"nombre":"Neuquén","id":"58","interseccion":0.00069146058453011},"categoria":"Municipio","centroide":{"lat":-37.6497782492439,"lon":-70.5833484817915}},{"nombre_completo":"Municipio Loncopué","fuente":"Direc. Pcial. de Catastro e Inf. Territorial","nombre":"Loncopué","id":"580126","provincia":{"nombre":"Neuquén","id":"58","interseccion":0.000840702899682668},"categoria":"Municipio","centroide":{"lat":-38.130763669743,"lon":-70.6070114096582}},{"nombre_completo":"Municipio Tricao Malal","fuente":"Direc. Pcial. de Catastro e Inf. Territorial","nombre":"Tricao Malal","id":"580105","provincia":{"nombre":"Neuquén","id":"58","interseccion":0.000828687049418878},"categoria":"Municipio","centroide":{"lat":-37.0444304664013,"lon":-70.3654033463117}},{"nombre_completo":"Municipio Isla del Cerrito","fuente":"Direc. Pcial. de Catastro y Cartografía","nombre":"Isla del Cerrito","id":"220042","provincia":{"nombre":"Chaco","id":"22","interseccion":0.00163121115846182},"categoria":"Municipio","centroide":{"lat":-27.304202864253,"lon":-58.6805128113911}},{"nombre_completo":"Municipio Huinganco","fuente":"Direc. Pcial. de Catastro e Inf. Territorial","nombre":"Huinganco","id":"580147","provincia":{"nombre":"Neuquén","id":"58","interseccion":0.00311606698011327},"categoria":"Municipio","centroide":{"lat":-37.0638452103236,"lon":-70.5999829263709}},{"nombre_completo":"Comisión de Fomento Los Chihuidos","fuente":"Direc. Pcial. de Catastro e Inf. Territorial","nombre":"Los Chihuidos","id":"585021","provincia":{"nombre":"Neuquén","id":"58","interseccion":0.0166606565475242},"categoria":"Comisión de Fomento","centroide":{"lat":-38.0504241884088,"lon":-69.5338451224223}},{"nombre_completo":"Comisión de Fomento Ramón Castro","fuente":"Direc. Pcial. de Catastro e Inf. Territorial","nombre":"Ramón Castro","id":"585147","provincia":{"nombre":"Neuquén","id":"58","interseccion":0.0091963873567677},"categoria":"Comisión de Fomento","centroide":{"lat":-38.9693906408624,"lon":-69.7563648428793}},{"nombre_completo":"Comisión de Fomento Covunco Abajo","fuente":"Direc. Pcial. de Catastro e Inf. Territorial","nombre":"Covunco Abajo","id":"585133","provincia":{"nombre":"Neuquén","id":"58","interseccion":0.00624171065864409},"categoria":"Comisión de Fomento","centroide":{"lat":-38.6166812663412,"lon":-69.6916428096758}},{"nombre_completo":"Comisión de Fomento Pilo Lil","fuente":"Direc. Pcial. de Catastro e Inf. Territorial","nombre":"Pilo Lil","id":"585028","provincia":{"nombre":"Neuquén","id":"58","interseccion":0.000514108022169065},"categoria":"Comisión de Fomento","centroide":{"lat":-39.6260254161966,"lon":-70.898029831876}},{"nombre_completo":"Comisión de Fomento Sauzal Bonito","fuente":"Direc. Pcial. de Catastro e Inf. Territorial","nombre":"Sauzal Bonito","id":"585042","provincia":{"nombre":"Neuquén","id":"58","interseccion":0.0019618751030913},"categoria":"Comisión de Fomento","centroide":{"lat":-38.5628864544464,"lon":-69.0137527772465}},{"nombre_completo":"Municipio San Martín de los Andes","fuente":"Direc. Pcial. de Catastro e Inf. Territorial","nombre":"San Martín de los Andes","id":"580119","provincia":{"nombre":"Neuquén","id":"58","interseccion":0.00155617317118408},"categoria":"Municipio","centroide":{"lat":-40.1347992136534,"lon":-71.3015414173336}},{"nombre_completo":"Municipio Coronel Du Graty","fuente":"Direc. Pcial. de Catastro y Cartografía","nombre":"Coronel Du Graty","id":"220308","provincia":{"nombre":"Chaco","id":"22","interseccion":0.00797423455554611},"categoria":"Municipio","centroide":{"lat":-27.7497326053766,"lon":-60.895146198341}},{"nombre_completo":"Municipio Samuhú","fuente":"Direc. Pcial. de Catastro y Cartografía","nombre":"Samuhú","id":"220420","provincia":{"nombre":"Chaco","id":"22","interseccion":0.00817904774432432},"categoria":"Municipio","centroide":{"lat":-27.6094738169633,"lon":-60.3528866161125}},{"nombre_completo":"Municipio Basail","fuente":"Direc. Pcial. de Catastro y Cartografía","nombre":"Basail","id":"220392","provincia":{"nombre":"Chaco","id":"22","interseccion":0.0136709888082691},"categoria":"Municipio","centroide":{"lat":-27.8743070022137,"lon":-59.1796870078997}},{"nombre_completo":"Municipio Puerto Vilelas","fuente":"Direc. Pcial. de Catastro y Cartografía","nombre":"Puerto Vilelas","id":"220406","provincia":{"nombre":"Chaco","id":"22","interseccion":0.00581235193060324},"categoria":"Municipio","centroide":{"lat":-27.7053948262969,"lon":-58.910501963792}},{"nombre_completo":"Municipio Barranqueras","fuente":"Direc. Pcial. de Catastro y Cartografía","nombre":"Barranqueras","id":"220385","provincia":{"nombre":"Chaco","id":"22","interseccion":0.000591017412889553},"categoria":"Municipio","centroide":{"lat":-27.4821152611743,"lon":-58.9196674519405}},{"nombre_completo":"Municipio General Capdevila","fuente":"Direc. Pcial. de Catastro y Cartografía","nombre":"General Capdevila","id":"220098","provincia":{"nombre":"Chaco","id":"22","interseccion":0.00190563256058187},"categoria":"Municipio","centroide":{"lat":-27.411362360788,"lon":-61.4672888167323}},{"nombre_completo":"Municipio Magdalena","fuente":"ARBA - Gerencia de Servicios Catastrales","nombre":"Magdalena","id":"060505","provincia":{"nombre":"Buenos Aires","id":"06","interseccion":0.0059332248112231},"categoria":"Municipio","centroide":{"lat":-35.1849498630336,"lon":-57.6863916153998}},{"nombre_completo":"Municipio Vicente López","fuente":"ARBA - Gerencia de Servicios Catastrales","nombre":"Vicente López","id":"060861","provincia":{"nombre":"Buenos Aires","id":"06","interseccion":0.000109738393696172},"categoria":"Municipio","centroide":{"lat":-34.52651318083,"lon":-58.504469589773}},{"nombre_completo":"Municipio Mártires","fuente":"Ministerio de Ecología","nombre":"Mártires","id":"540084","provincia":{"nombre":"Misiones","id":"54","interseccion":0.00355767487654828},"categoria":"Municipio","centroide":{"lat":-27.4192742863885,"lon":-55.3818743554229}},{"nombre_completo":"Municipio Santiago de Liniers","fuente":"Ministerio de Ecología","nombre":"Santiago de Liniers","id":"540168","provincia":{"nombre":"Misiones","id":"54","interseccion":0.0128858683039971},"categoria":"Municipio","centroide":{"lat":-26.4059052828746,"lon":-54.3574983163211}},{"nombre_completo":"Municipio San Pedro","fuente":"Ministerio de Ecología","nombre":"San Pedro","id":"540504","provincia":{"nombre":"Misiones","id":"54","interseccion":0.105775951040136},"categoria":"Municipio","centroide":{"lat":-26.7112090360395,"lon":-53.9412291264285}},{"nombre_completo":"Comisión de Fomento Fortín Lugones","fuente":"Direc. Grl. Catastro (WMS)","nombre":"Fortín Lugones","id":"345042","provincia":{"nombre":"Formosa","id":"34","interseccion":1.22889320312158e-05},"categoria":"Comisión de Fomento","centroide":{"lat":-24.2874111689075,"lon":-59.8298344316784}},{"nombre_completo":"Municipio San Bernardo","fuente":"Direc. Pcial. de Catastro y Cartografía","nombre":"San Bernardo","id":"220350","provincia":{"nombre":"Chaco","id":"22","interseccion":0.00992315395063279},"categoria":"Municipio","centroide":{"lat":-27.3378730497718,"lon":-60.7011479061373}},{"nombre_completo":"Delegación Municipal Juan José Castelli","fuente":"Direc. Pcial. de Catastro y Cartografía","nombre":"Juan José Castelli","id":"220182","provincia":{"nombre":"Chaco","id":"22","interseccion":0.0457984922891782},"categoria":"Delegación Municipal","centroide":{"lat":-25.9166159135438,"lon":-60.6640706206378}},{"nombre_completo":"Municipio Miraflores","fuente":"Direc. Pcial. de Catastro y Cartografía","nombre":"Miraflores","id":"220189","provincia":{"nombre":"Chaco","id":"22","interseccion":0.0359142190654188},"categoria":"Municipio","centroide":{"lat":-25.4782409210673,"lon":-61.0371403012266}},{"nombre_completo":"Comuna San Jose de la Cocha","fuente":"Dirección de Estadística de la Prov. Tucumán","nombre":"San Jose de la Cocha","id":"908259","provincia":{"nombre":"Tucumán","id":"90","interseccion":0.00184100090085658},"categoria":"Comuna","centroide":{"lat":-27.7311386048214,"lon":-65.5637818950497}},{"nombre_completo":"Comuna Rural Yanima","fuente":"Dirección de Estadística de la Prov. Tucumán","nombre":"Yanima","id":"908266","provincia":{"nombre":"Tucumán","id":"90","interseccion":0.00151782027450508},"categoria":"Comuna Rural","centroide":{"lat":-27.642361639587,"lon":-65.7194897325952}},{"nombre_completo":"Municipio Las Palmas","fuente":"Direc. Pcial. de Catastro y Cartografía","nombre":"Las Palmas","id":"220056","provincia":{"nombre":"Chaco","id":"22","interseccion":0.00447400765570014},"categoria":"Municipio","centroide":{"lat":-27.1249377281009,"lon":-58.6766006044424}},{"nombre_completo":"Municipio Yataytí Calle","fuente":"Dirección de Estadística y Censos","nombre":"Yataytí Calle","id":"180217","provincia":{"nombre":"Corrientes","id":"18","interseccion":0.00718365113796041},"categoria":"Municipio","centroide":{"lat":-29.0601700356195,"lon":-58.7974473916707}},{"nombre_completo":"Delegación Municipal Puerto Bermejo","fuente":"Direc. Pcial. de Catastro y Cartografía","nombre":"Puerto Bermejo","id":"220063","provincia":{"nombre":"Chaco","id":"22","interseccion":0.00445051074614882},"categoria":"Delegación Municipal","centroide":{"lat":-26.8872364610762,"lon":-58.5220496631663}},{"nombre_completo":"Municipio Presidencia de la Plaza","fuente":"Direc. Pcial. de Catastro y Cartografía","nombre":"Presidencia de la Plaza","id":"220357","provincia":{"nombre":"Chaco","id":"22","interseccion":0.0226149383022013},"categoria":"Municipio","centroide":{"lat":-27.0468199731497,"lon":-59.7751690486134}},{"nombre_completo":"Municipio Pergamino","fuente":"ARBA - Gerencia de Servicios Catastrales","nombre":"Pergamino","id":"060623","provincia":{"nombre":"Buenos Aires","id":"06","interseccion":0.00948447519470007},"categoria":"Municipio","centroide":{"lat":-33.8358155353661,"lon":-60.5450748689576}},{"nombre_completo":"Municipio Rauch","fuente":"ARBA - Gerencia de Servicios Catastrales","nombre":"Rauch","id":"060672","provincia":{"nombre":"Buenos Aires","id":"06","interseccion":0.0140623511119434},"categoria":"Municipio","centroide":{"lat":-36.5722509524193,"lon":-58.9444061302172}},{"nombre_completo":"Comisión Municipal Yavi","fuente":"Direc. Grl. de Inmuebles","nombre":"Yavi","id":"386273","provincia":{"nombre":"Jujuy","id":"38","interseccion":0.0121380401177993},"categoria":"Comisión Municipal","centroide":{"lat":-22.1949119799291,"lon":-65.3412864273208}},{"nombre_completo":"Municipio Mercedes","fuente":"Dirección de Estadística y Censos","nombre":"Mercedes","id":"180245","provincia":{"nombre":"Corrientes","id":"18","interseccion":0.0982790444621897},"categoria":"Municipio","centroide":{"lat":-29.0543617301547,"lon":-57.7596459149959}},{"nombre_completo":"Municipio Las Garcitas","fuente":"Direc. Pcial. de Catastro y Cartografía","nombre":"Las Garcitas","id":"220455","provincia":{"nombre":"Chaco","id":"22","interseccion":0.00299518450990299},"categoria":"Municipio","centroide":{"lat":-26.6232885192826,"lon":-59.7788567014564}},{"nombre_completo":"Municipio Gral. San Martengeneral San Martín","fuente":"Direc. Pcial. de Catastro y Cartografía","nombre":"Gral. San Martengeneral San Martín","id":"220259","provincia":{"nombre":"Chaco","id":"22","interseccion":0.0262911393403576},"categoria":"Municipio","centroide":{"lat":-26.5221875283042,"lon":-59.2755844593318}},{"nombre_completo":"Municipio Saladas","fuente":"Dirección de Estadística y Censos","nombre":"Saladas","id":"180308","provincia":{"nombre":"Corrientes","id":"18","interseccion":0.0151109107752789},"categoria":"Municipio","centroide":{"lat":-28.2333428700223,"lon":-58.5563693378129}},{"nombre_completo":"Municipio Villa Dos Trece","fuente":"Direc. Grl. Catastro (WMS)","nombre":"Villa Dos Trece","id":"340252","provincia":{"nombre":"Formosa","id":"34","interseccion":5.23934041037869e-05},"categoria":"Municipio","centroide":{"lat":-26.184603792573,"lon":-59.3642106776359}},{"nombre_completo":"Municipio Presidencia Roca","fuente":"Direc. Pcial. de Catastro y Cartografía","nombre":"Presidencia Roca","id":"220294","provincia":{"nombre":"Chaco","id":"22","interseccion":0.0102534050406958},"categoria":"Municipio","centroide":{"lat":-26.1772297025285,"lon":-59.6843651883855}},{"nombre_completo":"Municipio Pampa del Indio","fuente":"Direc. Pcial. de Catastro y Cartografía","nombre":"Pampa del Indio","id":"220287","provincia":{"nombre":"Chaco","id":"22","interseccion":0.0165126547433943},"categoria":"Municipio","centroide":{"lat":-26.0214403532384,"lon":-59.9713281008366}},{"nombre_completo":"Municipio Tres Isletas","fuente":"Direc. Pcial. de Catastro y Cartografía","nombre":"Tres Isletas","id":"220301","provincia":{"nombre":"Chaco","id":"22","interseccion":0.029211965931054},"categoria":"Municipio","centroide":{"lat":-26.3210291409793,"lon":-60.455348259001}},{"nombre_completo":"Municipio Salliqueló","fuente":"ARBA - Gerencia de Servicios Catastrales","nombre":"Salliqueló","id":"060721","provincia":{"nombre":"Buenos Aires","id":"06","interseccion":0.00259086870837977},"categoria":"Municipio","centroide":{"lat":-36.6710137553167,"lon":-63.0491259803334}},{"nombre_completo":"Delegación Municipal Villa Río Bermejito","fuente":"Direc. Pcial. de Catastro y Cartografía","nombre":"Villa Río Bermejito","id":"220203","provincia":{"nombre":"Chaco","id":"22","interseccion":0.0312020363291327},"categoria":"Delegación Municipal","centroide":{"lat":-25.4572628455707,"lon":-60.512589546568}},{"nombre_completo":"Municipio Misión Nueva Pompeya","fuente":"Direc. Pcial. de Catastro y Cartografía","nombre":"Misión Nueva Pompeya","id":"220169","provincia":{"nombre":"Chaco","id":"22","interseccion":0.0143434723724431},"categoria":"Municipio","centroide":{"lat":-24.9918396458623,"lon":-61.5529901499502}},{"nombre_completo":"Municipio Fuerte Esperanza","fuente":"Direc. Pcial. de Catastro y Cartografía","nombre":"Fuerte Esperanza","id":"220175","provincia":{"nombre":"Chaco","id":"22","interseccion":0.0683371232580535},"categoria":"Municipio","centroide":{"lat":-25.0435535331707,"lon":-61.9982165754166}},{"nombre_completo":"Delegación Municipal El Sauzalito","fuente":"Direc. Pcial. de Catastro y Cartografía","nombre":"El Sauzalito","id":"220168","provincia":{"nombre":"Chaco","id":"22","interseccion":0.0616133630355817},"categoria":"Delegación Municipal","centroide":{"lat":-24.6544130660635,"lon":-61.6482494847739}},{"nombre_completo":"Delegación Municipal Colonia Benitez","fuente":"Direc. Pcial. de Catastro y Cartografía","nombre":"Colonia Benitez","id":"220364","provincia":{"nombre":"Chaco","id":"22","interseccion":0.00469295369296885},"categoria":"Delegación Municipal","centroide":{"lat":-27.3100638470581,"lon":-58.8542427774583}},{"nombre_completo":"Delegación Municipal Colonias Elisa","fuente":"Direc. Pcial. de Catastro y Cartografía","nombre":"Colonias Elisa","id":"220441","provincia":{"nombre":"Chaco","id":"22","interseccion":0.0068187432107656},"categoria":"Delegación Municipal","centroide":{"lat":-26.9254012720409,"lon":-59.4073885705906}},{"nombre_completo":"Municipio Juan Pujol","fuente":"Dirección de Estadística y Censos","nombre":"Juan Pujol","id":"180259","provincia":{"nombre":"Corrientes","id":"18","interseccion":0.0051273486703864},"categoria":"Municipio","centroide":{"lat":-30.3777496827949,"lon":-57.8889139828733}},{"nombre_completo":"Municipio Pueblo Libertador","fuente":"Dirección de Estadística y Censos","nombre":"Pueblo Libertador","id":"180091","provincia":{"nombre":"Corrientes","id":"18","interseccion":0.00713991993160051},"categoria":"Municipio","centroide":{"lat":-30.2566420474997,"lon":-59.3188988449952}},{"nombre_completo":"Municipio Monte Caseros","fuente":"Dirección de Estadística y Censos","nombre":"Monte Caseros","id":"180273","provincia":{"nombre":"Corrientes","id":"18","interseccion":0.0148572813635879},"categoria":"Municipio","centroide":{"lat":-30.1816229638282,"lon":-57.8245096673467}},{"nombre_completo":"Municipio Parada Pucheta","fuente":"Dirección de Estadística y Censos","nombre":"Parada Pucheta","id":"180287","provincia":{"nombre":"Corrientes","id":"18","interseccion":0.00601447150759664},"categoria":"Municipio","centroide":{"lat":-29.8319290490767,"lon":-57.5860857472355}},{"nombre_completo":"Municipio Sauce","fuente":"Dirección de Estadística y Censos","nombre":"Sauce","id":"180455","provincia":{"nombre":"Corrientes","id":"18","interseccion":0.0283044719295598},"categoria":"Municipio","centroide":{"lat":-29.9995445616683,"lon":-58.7950373826115}},{"nombre_completo":"Municipio Paso de los Libres","fuente":"Dirección de Estadística y Censos","nombre":"Paso de los Libres","id":"180294","provincia":{"nombre":"Corrientes","id":"18","interseccion":0.0288086388432059},"categoria":"Municipio","centroide":{"lat":-29.510389362518,"lon":-57.3046162179262}},{"nombre_completo":"Municipio Goya","fuente":"Dirección de Estadística y Censos","nombre":"Goya","id":"180140","provincia":{"nombre":"Corrientes","id":"18","interseccion":0.0358379811957079},"categoria":"Municipio","centroide":{"lat":-29.3387451805435,"lon":-59.1814817449753}},{"nombre_completo":"Municipio 9 de Julio","fuente":"Dirección de Estadística y Censos","nombre":"9 de Julio","id":"180399","provincia":{"nombre":"Corrientes","id":"18","interseccion":0.0028249803192506},"categoria":"Municipio","centroide":{"lat":-28.826457496527,"lon":-58.8280908377803}},{"nombre_completo":"Comisión Municipal El Cóndor","fuente":"Direc. Grl. de Inmuebles","nombre":"El Cóndor","id":"386259","provincia":{"nombre":"Jujuy","id":"38","interseccion":0.00796981338079211},"categoria":"Comisión Municipal","centroide":{"lat":-22.414030404424,"lon":-65.3795310298623}},{"nombre_completo":"Municipio Felipe Yofré","fuente":"Dirección de Estadística y Censos","nombre":"Felipe Yofré","id":"180231","provincia":{"nombre":"Corrientes","id":"18","interseccion":0.00768162757336191},"categoria":"Municipio","centroide":{"lat":-29.0615191828754,"lon":-58.40424074046}},{"nombre_completo":"Municipio Tatacuá","fuente":"Dirección de Estadística y Censos","nombre":"Tatacuá","id":"180056","provincia":{"nombre":"Corrientes","id":"18","interseccion":0.00108206591473004},"categoria":"Municipio","centroide":{"lat":-28.3785989810718,"lon":-58.3050947683705}},{"nombre_completo":"Municipio La Cruz","fuente":"Dirección de Estadística y Censos","nombre":"La Cruz","id":"180371","provincia":{"nombre":"Corrientes","id":"18","interseccion":0.0531443251204332},"categoria":"Municipio","centroide":{"lat":-28.9102471314715,"lon":-56.921169074054}},{"nombre_completo":"Municipio Tabay","fuente":"Dirección de Estadística y Censos","nombre":"Tabay","id":"180049","provincia":{"nombre":"Corrientes","id":"18","interseccion":0.00346662533856655},"categoria":"Municipio","centroide":{"lat":-28.2854948392921,"lon":-58.287362735518}},{"nombre_completo":"Municipio Coronel Pringles","fuente":"ARBA - Gerencia de Servicios Catastrales","nombre":"Coronel Pringles","id":"060196","provincia":{"nombre":"Buenos Aires","id":"06","interseccion":0.0175219905245948},"categoria":"Municipio","centroide":{"lat":-38.1477437843902,"lon":-61.2646589620305}},{"nombre_completo":"Municipio Bella Vista","fuente":"Dirección de Estadística y Censos","nombre":"Bella Vista","id":"180007","provincia":{"nombre":"Corrientes","id":"18","interseccion":0.0198932759528005},"categoria":"Municipio","centroide":{"lat":-28.4973936042377,"lon":-58.9304362711764}},{"nombre_completo":"Comuna El Mollar","fuente":"Dirección de Estadística de la Prov. Tucumán","nombre":"El Mollar","id":"908581","provincia":{"nombre":"Tucumán","id":"90","interseccion":0.0144854366764051},"categoria":"Comuna","centroide":{"lat":-26.9510760628619,"lon":-65.7637492860761}},{"nombre_completo":"Municipio Municipalidad de Tafi del Valle","fuente":"Dirección de Estadística de la Prov. Tucumán","nombre":"Municipalidad de Tafi del Valle","id":"900105","provincia":{"nombre":"Tucumán","id":"90","interseccion":0.0174923390053129},"categoria":"Municipio","centroide":{"lat":-26.8032952032499,"lon":-65.7691213941268}},{"nombre_completo":"Municipio Palmar Grande","fuente":"Dirección de Estadística y Censos","nombre":"Palmar Grande","id":"180133","provincia":{"nombre":"Corrientes","id":"18","interseccion":0.00263742199265066},"categoria":"Municipio","centroide":{"lat":-27.9237583937917,"lon":-57.9146651736822}},{"nombre_completo":"Municipio Gobernador Ing. Valentín Virasoro","fuente":"Dirección de Estadística y Censos","nombre":"Gobernador Ing. Valentín Virasoro","id":"180434","provincia":{"nombre":"Corrientes","id":"18","interseccion":0.0218594117157208},"categoria":"Municipio","centroide":{"lat":-28.0253723148576,"lon":-56.146356903602}},{"nombre_completo":"Municipio Empedrado","fuente":"Dirección de Estadística y Censos","nombre":"Empedrado","id":"180077","provincia":{"nombre":"Corrientes","id":"18","interseccion":0.0218409122810331},"categoria":"Municipio","centroide":{"lat":-27.8961218833919,"lon":-58.6658439667826}},{"nombre_completo":"Municipio San Antonio","fuente":"IGN","nombre":"San Antonio","id":"180175","provincia":{"nombre":"Corrientes","id":"18","interseccion":0.00363142846975672},"categoria":"Municipio","centroide":{"lat":-27.5138604971911,"lon":-56.8539502572227}}]